[{"uni_ref":1,"p_name":"Avenal State Prison","latitude":35.9705041,"longitude":-120.1211248,"county":"Kings","city":"Avenal"},{"uni_ref":2,"p_name":"California City Correctional Facility","latitude":35.152328,"longitude":-117.858308,"county":"Kern","city":"California City"},{"uni_ref":3,"p_name":"California Correctional Center","latitude":40.3974017,"longitude":-120.5117488,"county":"Lassen","city":"Susanville"},{"uni_ref":4,"p_name":"California Correctional Institution","latitude":35.1133011,"longitude":-118.5694869,"county":"Kern","city":"Tehachapi"},{"uni_ref":5,"p_name":"California Health Care Facility","latitude":37.8947278,"longitude":-121.1848441,"county":"San Joaquin","city":"Stockton"},{"uni_ref":6,"p_name":"California Institution for Men","latitude":34.0821285,"longitude":-117.3861722,"county":"San Bernardino","city":"Chino"},{"uni_ref":7,"p_name":"California Institution for Women","latitude":33.9493511,"longitude":-117.634771,"county":"San Bernardino","city":"Chino"},{"uni_ref":8,"p_name":"California Medical Facility","latitude":38.333213,"longitude":-121.9793527,"county":"Solano","city":"Vacaville"},{"uni_ref":9,"p_name":"California Men's Colony","latitude":35.2445252,"longitude":-120.682159,"county":"San Luis Obispo","city":"San Luis Obispo"},{"uni_ref":10,"p_name":"California Rehabilitation Center","latitude":33.9311823,"longitude":-117.5766389,"county":"Riverside","city":"Norco"},{"uni_ref":11,"p_name":"California State Prison","latitude":32.7956026,"longitude":-115.7744787,"county":"Imperial","city":"Imperial"},{"uni_ref":12,"p_name":"California State Prison - Centinela","latitude":32.7956026,"longitude":-115.7744787,"county":"Imperial","city":"Imperial"},{"uni_ref":13,"p_name":"California State Prison - Corcoran","latitude":36.060226,"longitude":-119.552853,"county":"Kings","city":"Corcoran"},{"uni_ref":14,"p_name":"California State Prison - Los Angeles","latitude":34.6894876,"longitude":-118.2365963,"county":"Los Angeles","city":"Lancaster"},{"uni_ref":15,"p_name":"California State Prison - Sacramento","latitude":38.6875176,"longitude":-121.159923,"county":"Sacramento","city":"Represa"},{"uni_ref":16,"p_name":"California State Prison - Solano","latitude":38.3168817,"longitude":-121.9742829,"county":"Solano","city":"Vacaville"},{"uni_ref":17,"p_name":"California Substance Abuse Treatment Facility and State Prison - Corcoran","latitude":36.0525532,"longitude":-119.5536827,"county":"Kings","city":"Corcoran"},{"uni_ref":18,"p_name":"Calipatria State Prison","latitude":33.163567,"longitude":-115.4931693,"county":"Imperial","city":"Calipatria"},{"uni_ref":19,"p_name":"Central California Women's Facility","latitude":37.0903601,"longitude":-120.1497066,"county":"Madera","city":"Chowchilla"},{"uni_ref":20,"p_name":"Chuckawalla Valley State Prison","latitude":33.5629667,"longitude":-114.9072763,"county":"Riverside","city":"Blythe"},{"uni_ref":21,"p_name":"Correctional Training Facility","latitude":36.4093667,"longitude":-121.3193189,"county":"Monterey","city":"Soledad"},{"uni_ref":22,"p_name":"Deuel Vocational Institute","latitude":37.747725,"longitude":-121.3299863,"county":"San Joaquin","city":"Tracy"},{"uni_ref":23,"p_name":"Folsom State Prison","latitude":38.694558,"longitude":-121.1624287,"county":"Sacramento","city":"Represa"},{"uni_ref":24,"p_name":"High Desert State Prison","latitude":40.4052702,"longitude":-120.5260649,"county":"Lassen","city":"Susanville"},{"uni_ref":25,"p_name":"Ironwood State Prison","latitude":33.5609644,"longitude":-114.9266802,"county":"Riverside","city":"Blythe"},{"uni_ref":26,"p_name":"Kern Valley State Prison","latitude":35.7656527,"longitude":-119.3220574,"county":"Kern","city":"Delano"},{"uni_ref":27,"p_name":"Mule Creek State Prison","latitude":38.3686728,"longitude":-120.9594405,"county":"Amador","city":"Ione"},{"uni_ref":28,"p_name":"North Kern State Prison","latitude":35.7813675,"longitude":-119.3060685,"county":"Kern","city":"Delano"},{"uni_ref":29,"p_name":"Pelican Bay State Prison","latitude":41.8504388,"longitude":-124.1583686,"county":"Del Norte","city":"Crescent City"},{"uni_ref":30,"p_name":"Pleasant Valley State Prison","latitude":36.1314523,"longitude":-120.2486679,"county":"Fresno","city":"Coalinga"},{"uni_ref":31,"p_name":"Richard J. Donovan Correctional Facility","latitude":32.5846461,"longitude":-116.9334776,"county":"San Diego","city":"San Diego"},{"uni_ref":32,"p_name":"Salinas Valley State Prison","latitude":36.3639126,"longitude":-121.2781234,"county":"Monterey","city":"Soledad"},{"uni_ref":33,"p_name":"San Quentin State Prison","latitude":37.9415566,"longitude":-122.4843922,"county":"Marin","city":"San Quentin"},{"uni_ref":34,"p_name":"Sierra Conservation Center","latitude":37.8900437,"longitude":-120.5454373,"county":"Tuolumne","city":"Jamestown"},{"uni_ref":35,"p_name":"Valley State Prison","latitude":37.1033659,"longitude":-120.1541466,"county":"Madera","city":"Chowchilla"},{"uni_ref":36,"p_name":"Wasco State Prison","latitude":35.5950806,"longitude":-119.4080748,"county":"Kern","city":"Wasco"}]