[{"uni_ref":1,"p_name":"Avenal State Prison","county":"Kings","city":"Avenal","fips":31,"zip":93204,"latitude":35.9705041,"longitude":-120.1211248},{"uni_ref":2,"p_name":"California City Correctional Facility","county":"Kern","city":"California City","fips":29,"zip":93505,"latitude":35.152328,"longitude":-117.858308},{"uni_ref":3,"p_name":"California Correctional Center","county":"Lassen","city":"Susanville","fips":35,"zip":96127,"latitude":40.3974017,"longitude":-120.5117488},{"uni_ref":4,"p_name":"California Correctional Institution","county":"Kern","city":"Tehachapi","fips":29,"zip":93561,"latitude":35.1133011,"longitude":-118.5694869},{"uni_ref":5,"p_name":"California Health Care Facility","county":"San Joaquin","city":"Stockton","fips":77,"zip":95201,"latitude":37.8947278,"longitude":-121.1848441},{"uni_ref":6,"p_name":"California Institution for Men","county":"San Bernardino","city":"Chino","fips":71,"zip":91708,"latitude":34.0821285,"longitude":-117.3861722},{"uni_ref":7,"p_name":"California Institution for Women","county":"San Bernardino","city":"Chino","fips":71,"zip":92877,"latitude":33.9493511,"longitude":-117.634771},{"uni_ref":8,"p_name":"California Medical Facility","county":"Solano","city":"Vacaville","fips":95,"zip":95687,"latitude":38.333213,"longitude":-121.9793527},{"uni_ref":9,"p_name":"California Men's Colony","county":"San Luis Obispo","city":"San Luis Obispo","fips":79,"zip":93401,"latitude":35.2445252,"longitude":-120.682159},{"uni_ref":10,"p_name":"California Rehabilitation Center","county":"Riverside","city":"Norco","fips":65,"zip":92860,"latitude":33.9311823,"longitude":-117.5766389},{"uni_ref":11,"p_name":"California State Prison","county":"Imperial","city":"Imperial","fips":25,"zip":92251,"latitude":32.7956026,"longitude":-115.7744787},{"uni_ref":12,"p_name":"California State Prison - Centinela","county":"Imperial","city":"Imperial","fips":25,"zip":92251,"latitude":32.7956026,"longitude":-115.7744787},{"uni_ref":13,"p_name":"California State Prison - Corcoran","county":"Kings","city":"Corcoran","fips":31,"zip":93212,"latitude":36.060226,"longitude":-119.552853},{"uni_ref":14,"p_name":"California State Prison - Los Angeles","county":"Los Angeles","city":"Lancaster","fips":37,"zip":93534,"latitude":34.6894876,"longitude":-118.2365963},{"uni_ref":15,"p_name":"California State Prison - Sacramento","county":"Sacramento","city":"Represa","fips":67,"zip":95671,"latitude":38.6875176,"longitude":-121.159923},{"uni_ref":16,"p_name":"California State Prison - Solano","county":"Solano","city":"Vacaville","fips":95,"zip":95687,"latitude":38.3168817,"longitude":-121.9742829},{"uni_ref":17,"p_name":"California Substance Abuse Treatment Facility and State Prison - Corcoran","county":"Kings","city":"Corcoran","fips":31,"zip":93212,"latitude":36.0525532,"longitude":-119.5536827},{"uni_ref":18,"p_name":"Calipatria State Prison","county":"Imperial","city":"Calipatria","fips":25,"zip":92233,"latitude":33.163567,"longitude":-115.4931693},{"uni_ref":19,"p_name":"Central California Women's Facility","county":"Madera","city":"Chowchilla","fips":39,"zip":93610,"latitude":37.0903601,"longitude":-120.1497066},{"uni_ref":20,"p_name":"Chuckawalla Valley State Prison","county":"Riverside","city":"Blythe","fips":65,"zip":92225,"latitude":33.5629667,"longitude":-114.9072763},{"uni_ref":21,"p_name":"Correctional Training Facility","county":"Monterey","city":"Soledad","fips":53,"zip":93960,"latitude":36.4093667,"longitude":-121.3193189},{"uni_ref":22,"p_name":"Deuel Vocational Institute","county":"San Joaquin","city":"Tracy","fips":77,"zip":95304,"latitude":37.747725,"longitude":-121.3299863},{"uni_ref":23,"p_name":"Folsom State Prison","county":"Sacramento","city":"Represa","fips":67,"zip":95671,"latitude":38.694558,"longitude":-121.1624287},{"uni_ref":24,"p_name":"High Desert State Prison","county":"Lassen","city":"Susanville","fips":35,"zip":96127,"latitude":40.4052702,"longitude":-120.5260649},{"uni_ref":25,"p_name":"Ironwood State Prison","county":"Riverside","city":"Blythe","fips":65,"zip":92225,"latitude":33.5609644,"longitude":-114.9266802},{"uni_ref":26,"p_name":"Kern Valley State Prison","county":"Kern","city":"Delano","fips":29,"zip":93215,"latitude":35.7656527,"longitude":-119.3220574},{"uni_ref":27,"p_name":"Mule Creek State Prison","county":"Amador","city":"Ione","fips":5,"zip":95640,"latitude":38.3686728,"longitude":-120.9594405},{"uni_ref":28,"p_name":"North Kern State Prison","county":"Kern","city":"Delano","fips":29,"zip":93215,"latitude":35.7813675,"longitude":-119.3060685},{"uni_ref":29,"p_name":"Pelican Bay State Prison","county":"Del Norte","city":"Crescent City","fips":15,"zip":95531,"latitude":41.8504388,"longitude":-124.1583686},{"uni_ref":30,"p_name":"Pleasant Valley State Prison","county":"Fresno","city":"Coalinga","fips":19,"zip":93210,"latitude":36.1314523,"longitude":-120.2486679},{"uni_ref":31,"p_name":"Richard J. Donovan Correctional Facility","county":"San Diego","city":"San Diego","fips":73,"zip":92101,"latitude":32.5846461,"longitude":-116.9334776},{"uni_ref":32,"p_name":"Salinas Valley State Prison","county":"Monterey","city":"Soledad","fips":53,"zip":93960,"latitude":36.3639126,"longitude":-121.2781234},{"uni_ref":33,"p_name":"San Quentin State Prison","county":"Marin","city":"San Quentin","fips":41,"zip":94964,"latitude":37.9415566,"longitude":-122.4843922},{"uni_ref":34,"p_name":"Sierra Conservation Center","county":"Tuolumne","city":"Jamestown","fips":109,"zip":95327,"latitude":37.8900437,"longitude":-120.5454373},{"uni_ref":35,"p_name":"Valley State Prison","county":"Madera","city":"Chowchilla","fips":39,"zip":93610,"latitude":37.1033659,"longitude":-120.1541466},{"uni_ref":36,"p_name":"Wasco State Prison","county":"Kern","city":"Wasco","fips":29,"zip":93280,"latitude":35.5950806,"longitude":-119.4080748}]